City,Country,Temperature,Humidity,Cloudiness,Wind Speed,Latitude,Longitude
bandarbeyla,so,76.28,100,64,5.88,9.49,50.81
sur,om,86.05,82,0,6.67,22.57,59.53
port alfred,za,68.59,98,92,5.88,-33.59,26.89
tremedal,br,64.76,89,0,2.98,-14.98,-41.41
taolanaro,mg,,,,,,
kapaa,us,79.97,73,40,13.87,22.08,-159.32
pangnirtung,ca,28.45,84,92,21.43,66.15,-65.72
tuatapere,nz,50.59,96,36,11.81,-46.13,167.69
havelock,us,68.04,100,90,9.17,34.88,-76.9
katsuura,jp,68,45,20,17.22,33.93,134.5
broome,au,39.2,93,40,8.05,52.47,1.45
punta arenas,cl,44.6,93,90,9.17,-53.16,-70.91
scarborough,tt,36.73,90,80,8.05,54.28,-0.41
yellowknife,ca,28.4,100,90,3.36,62.45,-114.38
grand-lahou,ci,76.42,92,56,3.65,5.24,-5
new norfolk,au,50,43,75,25.28,-42.78,147.06
ushuaia,ar,48.2,66,40,6.93,-54.81,-68.31
kibi,gh,68.68,94,0,2.53,6.17,-0.55
egvekinot,ru,-3.24,61,0,2.19,66.32,-179.17
wum,cm,66.16,94,76,2.42,6.39,10.08
mangrol,in,88.61,37,12,8.34,25.33,76.51
sentyabrskiy,ru,,,,,,
clyde river,ca,19.4,79,90,14.99,70.47,-68.59
leningradskiy,ru,19.9,100,8,9.91,69.38,178.42
hedensted,dk,40.1,80,80,16.11,55.77,9.7
kawana waters,au,,,,,,
dubenskiy,ru,,,,,,
chokurdakh,ru,2.89,85,92,4.43,70.62,147.9
albany,au,37.87,69,90,3.36,42.65,-73.75
te anau,nz,45.46,95,68,3.87,-45.41,167.72
namibe,ao,76.96,91,0,11.14,-15.19,12.15
port hardy,ca,48.2,93,90,2.24,50.7,-127.42
hermanus,za,67.33,76,8,3.98,-34.42,19.24
hobyo,so,81.41,93,0,4.65,5.35,48.53
mataura,pf,50.14,96,92,5.21,-46.19,168.86
yulara,au,66.2,88,75,13.87,-25.24,130.99
atuona,pf,79.43,100,100,16.51,-9.8,-139.03
tabou,ci,80.02,100,92,5.21,4.42,-7.36
samusu,ws,,,,,,
necochea,ar,51.94,99,24,7.34,-38.55,-58.74
provideniya,ru,27.82,100,0,21.43,64.42,-173.23
saskylakh,ru,13.19,82,76,7.11,71.97,114.09
caiaponia,br,68.99,93,12,4.21,-16.96,-51.81
espanola,ca,35.56,97,92,7,46.27,-81.77
arkhipo-osipovka,ru,52.3,93,48,4.99,44.37,38.53
tuktoyaktuk,ca,21.2,92,90,5.82,69.44,-133.03
rawson,ar,58.69,70,68,9.57,-43.3,-65.11
deputatskiy,ru,-3.91,73,64,2.86,69.3,139.9
bethel,us,33.8,86,20,12.75,60.79,-161.76
moose jaw,ca,28.4,92,75,4.7,50.4,-105.54
arraial do cabo,br,72.01,98,56,14.5,-22.97,-42.02
vaini,to,87.58,40,8,9.91,15.34,74.49
cape town,za,60.8,87,0,2.24,-33.93,18.42
phuket,th,86.65,62,20,13.87,7.89,98.4
verkhnevilyuysk,ru,23.77,78,0,3.65,63.45,120.31
hobart,au,50,43,75,25.28,-42.88,147.33
itoman,jp,77.58,54,40,24.16,26.12,127.67
bodden town,ky,81.28,100,0,4.32,19.28,-81.25
pevek,ru,5.63,100,0,6.33,69.7,170.27
taltal,cl,50.14,97,12,1.63,-25.41,-70.49
klaksvik,fo,39.2,100,80,29.97,62.23,-6.59
rikitea,pf,72.91,100,36,13.49,-23.12,-134.97
bredasdorp,za,68,88,64,10.29,-34.53,20.04
bluff,nz,96.53,20,0,4.54,-23.58,149.07
busselton,au,71.65,77,0,12.93,-33.64,115.35
tiksi,ru,3.38,82,48,4.76,71.64,128.87
puerto ayora,ec,68.77,100,24,10.02,-0.74,-90.35
chiang khong,th,84.2,74,40,3.36,20.27,100.41
marsaxlokk,mt,69.8,77,20,11.41,35.84,14.54
khatanga,ru,17.92,81,24,12.82,71.98,102.47
kavieng,pg,79.43,100,64,3.42,-2.57,150.8
erenhot,cn,44.33,43,0,20.09,43.65,111.97
sao joao do paraiso,br,64.45,95,12,2.75,-15.31,-42.01
jau,br,44.6,87,20,11.41,45.42,-0.97
corralillo,cu,74.17,100,8,3.2,22.98,-80.59
tocopilla,cl,55.94,100,24,0.85,-22.09,-70.2
ponta do sol,pt,59.99,92,24,2.86,-20.63,-46
geraldton,au,30.2,86,90,5.82,49.72,-86.95
airai,pw,88.61,32,12,1.74,-8.93,125.41
moerai,pf,69.31,100,100,21.32,-22.43,-151.33
kencong,id,89.29,52,20,10.8,-7.78,112.24
hasaki,jp,73.27,73,40,14.99,35.73,140.83
chuy,uy,60.58,99,92,21.32,-33.69,-53.46
ponta delgada,pt,62.6,72,40,5.82,37.73,-25.67
kelso,us,56.14,100,90,2.53,46.14,-122.91
khorixas,na,71.06,50,56,3.98,-20.37,14.96
salalah,om,78.8,69,40,4.7,17.01,54.1
barrow,us,54.91,90,8,8.46,-38.31,-60.23
cidreira,br,65.17,99,92,3.76,-30.17,-50.22
butaritari,ki,84.88,100,64,3.2,3.07,172.79
ribeira grande,pt,68.32,98,64,19.64,38.52,-28.7
deori khas,in,86.81,49,0,4.54,23.39,79.03
gwanda,zw,72.01,43,0,9.69,-20.94,29
upernavik,gl,22.01,100,88,24.67,72.79,-56.15
vila velha,br,80.6,78,40,12.75,-3.71,-38.6
dwarka,in,75.2,53,0,4.65,28.58,77.04
castro,cl,50.86,98,92,3.31,-42.48,-73.76
tsihombe,mg,,,,,,
lompoc,us,57.52,72,1,2.98,34.64,-120.46
georgetown,sh,77,94,40,4.7,6.8,-58.16
severo-kurilsk,ru,43.57,98,20,7.23,50.68,156.12
banugao,ph,82.54,95,0,14.27,14.73,121.63
port lincoln,au,64.18,77,92,10.8,-34.72,135.86
san cristobal,ec,53.6,87,20,5.82,-0.39,-78.55
souillac,mu,44.6,87,20,11.41,45.6,-0.6
east london,za,66.2,88,90,2.24,-33.02,27.91
altea,es,66.2,82,0,6.93,38.6,-0.05
ulladulla,au,73.4,53,68,14.99,-35.36,150.48
tourlaville,fr,45.55,100,75,11.41,49.64,-1.57
alofi,nu,78.8,83,92,6.93,-19.06,-169.92
chagda,ru,,,,,,
campoverde,pe,66.2,93,40,9.17,41.54,12.73
ingham,au,84.52,67,0,6.78,-18.65,146.16
nikolskoye,ru,33.8,86,90,4.47,59.7,30.79
santa fe de la laguna,mx,62.6,88,75,3.36,19.67,-101.56
bagdarin,ru,25.93,41,36,9.01,54.44,113.59
tilichiki,ru,37.13,100,92,10.02,60.47,166.1
qaanaaq,gl,-1.17,100,0,5.32,77.48,-69.36
torbay,ca,35.6,100,90,12.75,47.66,-52.73
northam,au,36.79,93,20,5.82,51.04,-4.21
esperance,au,78.8,88,20,5.21,10.24,-61.45
kamenskoye,ru,,,,,,
serik,tr,51.8,50,0,9.17,36.92,31.1
jumla,np,40.69,70,12,1.07,29.28,82.18
yate,nc,35.89,86,0,8.05,51.54,-2.41
prince rupert,ca,50,81,90,6.93,54.32,-130.32
iqaluit,ca,15.8,78,90,34.45,63.75,-68.52
hunza,pk,,,,,,
saldanha,za,46.58,90,100,7.67,41.42,-6.55
bengkulu,id,,,,,,
noeux-les-mines,fr,40.48,93,75,9.17,50.48,2.67
rolim de moura,br,,,,,,
malwan,in,,,,,,
lagoa,pt,62.6,93,20,8.05,37.14,-8.45
lebu,cl,62.56,46,0,3.76,8.96,38.73
nome,us,57.2,87,1,5.77,30.04,-94.42
south lake tahoe,us,50.74,34,1,3.36,38.93,-119.98
sioux lookout,ca,38.86,100,90,6.93,50.1,-91.92
gornopravdinsk,ru,47.8,97,92,10.02,60.06,69.92
moura,pt,57.2,100,90,6.93,38.14,-7.45
honolulu,us,78.4,74,75,12.75,21.3,-157.86
saint-philippe,re,28.85,79,90,3.36,45.36,-73.48
gejiu,cn,66.34,87,88,2.75,23.36,103.16
ukiah,us,68,60,1,6.93,39.15,-123.21
ouadda,cf,71.11,98,20,6.22,8.07,22.4
mehamn,no,28.45,79,8,10.8,71.03,27.85
kapit,my,80.06,84,88,2.98,2.02,112.94
ostrovnoy,ru,31.28,85,88,18.19,68.05,39.51
kula,tr,55.4,76,0,9.17,45.61,19.53
coxim,br,72.86,89,48,2.98,-18.5,-54.75
biak,id,84.29,78,44,6.78,-0.91,122.88
de-kastri,ru,48.61,81,64,14.38,51.48,140.77
alyangula,au,88.48,80,0,13.27,-13.85,136.42
hilo,us,67.96,94,75,4.7,19.71,-155.08
vardo,no,42.51,93,90,10.29,39.62,-77.74
oussouye,sn,80.38,100,0,5.44,12.49,-16.54
ekibastuz,kz,55.04,36,20,11.92,51.72,75.32
fremont,us,63.01,77,1,3.36,37.55,-121.99
bingol,tr,41.41,79,0,3.31,38.88,40.49
harper,lr,54.95,87,1,5.44,30.3,-99.24
plavinas,lv,37.94,97,92,7.45,56.62,25.73
yumen,cn,54.28,45,0,8.46,40.29,97.04
jamestown,sh,71.02,37,92,3.65,-33.21,138.6
vondrozo,mg,69.4,93,88,4.65,-22.82,47.32
mongu,zm,75.97,28,20,9.46,-15.27,23.14
chiredzi,zw,73,60,0,7.11,-21.05,31.67
karasburg,na,76.42,12,0,2.98,-28.01,18.75
amderma,ru,,,,,,
bosaso,so,73.4,100,5,3.65,11.28,49.18
grindavik,is,26.6,68,0,5.82,63.84,-22.43
port elizabeth,za,51.75,100,90,16.11,39.31,-74.98
sinnamary,gf,80.69,97,92,9.46,5.38,-52.96
darnah,ly,69.76,100,0,9.01,32.77,22.64
dakar,sn,77,94,76,10.13,14.69,-17.45
kazalinsk,kz,,,,,,
tigil,ru,42.13,84,56,8.46,57.8,158.67
nan,th,87.8,58,20,3.36,18.78,100.78
jinchang,cn,48.79,69,0,3.65,38.52,102.19
riachao das neves,br,72.28,70,24,2.53,-11.75,-44.91
mullaitivu,lk,,,,,,
matamoros,mx,66.65,94,1,5.82,25.87,-97.51
piacabucu,br,74.66,89,76,11.48,-10.41,-36.43
san patricio,mx,65.66,91,80,5.77,-26.98,-56.83
talnakh,ru,32.5,96,92,20.54,69.49,88.39
warqla,dz,,,,,,
brae,gb,41,97,36,25.28,60.4,-1.35
sorland,no,42.53,100,8,11.59,67.67,12.69
cayenne,gf,75.2,94,20,5.66,4.94,-52.33
coronado,us,78.76,100,92,6.67,8.53,-79.9
hithadhoo,mv,80.96,100,88,13.27,-0.6,73.08
yamada,jp,65.14,59,75,19.46,36.58,137.08
ilulissat,gl,37.4,69,92,36.91,69.22,-51.1
jacmel,ht,80.51,100,36,10.25,18.24,-72.54
goryachegorsk,ru,45.68,53,0,2.98,55.41,88.92
mendi,et,64.04,98,80,3.76,9.8,35.1
bandar-e torkaman,ir,,,,,,
dingle,ie,80.56,81,88,4.09,11,122.67
beringovskiy,ru,15.31,100,0,7,63.05,179.32
ancud,cl,51.85,99,92,4.65,-41.87,-73.83
rushden,gb,36.72,80,0,11.41,52.29,-0.6
bekhtery,ua,53.11,86,0,11.25,46.25,32.3
richards bay,za,72.91,82,36,4.76,-28.77,32.06
lata,sb,57.43,60,0,1.97,30.78,78.62
mar del plata,ar,57.61,57,68,15.17,-46.43,-67.52
barentsburg,sj,,,,,,
fortuna,us,65.3,82,0,6.93,38.18,-1.13
teya,ru,78.8,74,75,4.43,21.05,-89.07
santa cruz,cr,61.59,51,1,2.64,36.97,-122.03
burnie,au,55.45,99,0,24.56,-41.05,145.91
babu,cn,66.43,84,80,3.42,23.23,104.89
belushya guba,ru,,,,,,
guerrero negro,mx,65.21,57,0,5.44,27.97,-114.04
vaitupu,wf,,,,,,
carnarvon,au,73.76,24,0,5.88,-30.97,22.13
nyurba,ru,27.73,79,76,3.65,63.29,118.35
mountain home,us,55.76,76,75,5.82,43.13,-115.69
palabuhanratu,id,,,,,,
inuvik,ca,23,92,90,3.36,68.36,-133.71
dzhusaly,kz,,,,,,
hami,cn,59.95,42,0,5.99,42.84,93.51
malanje,ao,68.36,92,0,2.86,-9.54,16.35
avarua,ck,73.4,94,90,9.17,-21.21,-159.78
kattivakkam,in,87.8,62,20,13.87,13.22,80.32
sangar,ru,17.92,76,56,2.98,63.92,127.47
pacific grove,us,59.4,51,1,4.21,36.62,-121.92
coihaique,cl,48.97,81,76,4.7,-45.58,-72.07
qingdao,cn,59,26,0,15.66,36.09,120.35
lorengau,pg,84.56,100,20,2.64,-2.02,147.27
mackay,au,36.5,74,40,5.82,53.65,-115.58
marawi,sd,80.78,67,56,3.09,8,124.29
tvoroyri,fo,39.2,100,68,29.97,61.56,-6.81
pitelino,ru,34.48,91,80,12.71,54.58,41.81
russell,nz,64.4,59,0,2.75,-33.01,-68.8
leshukonskoye,ru,33.85,92,92,6.78,64.9,45.76
saint anthony,ca,54.19,50,90,10.29,43.97,-111.68
lazaro cardenas,mx,51.8,71,5,3.36,28.39,-105.62
southbridge,nz,37.78,74,1,4.7,42.08,-72.03
port hedland,au,87.8,52,0,16.11,-20.31,118.58
adrar,dz,57.2,47,0,11.41,27.87,-0.29
illoqqortoormiut,gl,,,,,,
bambous virieux,mu,75.2,69,40,4.7,-20.34,57.76
teguldet,ru,46.13,55,0,5.44,57.31,88.17
ngerengere,tz,75.79,86,64,3.31,-6.76,38.13
dikson,ru,22.6,100,64,32.28,73.51,80.55
bibiani,gh,70.48,96,44,3.65,6.45,-2.31
xuanzhou,cn,65.84,57,0,6.33,30.95,118.78
cabo san lucas,mx,74.39,83,20,10.29,22.89,-109.91
bintulu,my,87.8,70,75,6.93,3.17,113.03
turayf,sa,41,93,0,4.7,31.68,38.65
komsomolskiy,ru,32.68,98,92,1.3,67.55,63.78
rajaldesar,in,87.4,33,8,8.23,28.03,74.47
norman wells,ca,26.6,92,90,5.82,65.28,-126.83
thinadhoo,mv,82.04,100,92,14.05,0.53,72.93
san juan bautista,pe,67.73,98,88,9.46,-26.67,-57.15
carballo,es,49.86,62,0,10.29,43.21,-8.69
narsaq,gl,50,29,92,13.87,60.91,-46.05
codrington,ag,75.79,67,24,2.19,-28.95,153.24
faanui,pf,79.43,100,36,7,-16.48,-151.75
tumannyy,ru,,,,,,
asau,tv,,,,,,
lahat,id,86.05,96,8,4.43,-3.78,103.55
sungairaya,id,83.21,89,64,3.87,0.7,108.9
srednekolymsk,ru,9.28,77,92,2.64,67.46,153.71
rosetown,ca,33.31,77,76,5.99,51.55,-107.99
beachwood,us,43.83,81,90,6.93,41.46,-81.51
chuchkovo,ru,33.85,90,44,11.48,54.27,41.45
tubruq,ly,,,,,,
zapolyarnyy,ru,32,88,48,12.75,69.43,30.82
belaya gora,ru,0.37,74,80,4.76,68.54,146.19
borovikha,ru,42.8,48,0,6.71,53.51,83.84
zhengjiatun,cn,41.18,66,36,18.86,43.51,123.51
thompson,ca,28.4,92,90,4.7,55.74,-97.86
grand river south east,mu,,,,,,
bataipora,br,70.66,97,88,6.67,-22.3,-53.27
kapoeta,sd,,,,,,
dandong,cn,42.4,58,48,9.01,40.12,124.37
kimbe,pg,75.79,100,92,5.77,-5.56,150.15
mogadishu,so,78.8,83,75,6.93,2.04,45.34
malacacheta,br,67.19,97,68,2.98,-17.84,-42.08
yinchuan,cn,58.87,27,0,3.76,38.48,106.21
sao miguel do araguaia,br,77.18,83,0,2.75,-13.28,-50.16
husavik,is,44.24,97,92,5.99,50.56,-96.99
nioro,ml,76.78,84,20,5.1,13.79,-15.05
la llanada,co,46.63,90,24,2.08,1.47,-77.58
samarai,pg,79.66,100,76,4.21,-10.62,150.67
attawapiskat,ca,,,,,,
urucara,br,85.01,53,0,4.76,-2.54,-57.76
korhogo,ci,72.64,88,32,5.21,9.46,-5.63
ardistan,ir,,,,,,
brasileia,br,,,,,,
nanortalik,gl,38.39,88,92,22.77,60.14,-45.24
arlit,ne,64.36,81,0,3.65,18.74,7.39
whitehorse,ca,33.8,80,75,13.87,60.72,-135.06
koubia,gn,63.19,95,8,2.86,11.59,-11.89
shanghai,cn,68.86,21,0,13.42,31.23,121.49
fiumicino,it,66.2,93,40,9.17,41.77,12.23
fuente palmera,es,59,93,88,3.36,37.7,-5.1
ende,id,81.73,100,0,8.79,-8.84,121.65
banjarmasin,id,85.24,81,48,6.67,-3.32,114.59
berlevag,no,32.59,100,68,14.27,70.86,29.09
rundu,na,73.13,43,68,8.9,-17.91,19.77
valdivia,cl,57.2,93,90,8.05,-39.81,-73.25
marv dasht,ir,,,,,,
watsa,cd,70.75,93,36,4.99,3.04,29.53
ramsar,ir,62.6,88,75,39.15,36.92,50.64
warmbad,na,45.61,70,64,9.17,50.67,13.08
mucurapo,tt,78.8,88,20,11.92,10.67,-61.53
aswan,eg,72.1,53,0,7.23,24.09,32.9
starodzhereliyevskaya,ru,47.71,91,0,10.69,45.48,38.3
port moresby,pg,84.2,70,40,11.41,-9.47,147.16
sawara,jp,78.71,47,0,4.21,30.68,76.64
kaitangata,nz,51.98,96,92,8.01,-46.28,169.85
port-gentil,ga,77.63,100,92,6.22,-0.72,8.78
henties bay,na,71.02,75,12,3.98,-22.12,14.28
mandiana,gn,70.66,86,88,6.55,10.62,-8.7
san quintin,mx,89.6,49,20,6.93,17.54,120.52
pingliang,cn,56.98,46,0,3.53,35.54,106.68
tasiilaq,gl,26.6,86,92,32.21,65.61,-37.64
uglekamensk,ru,41.14,70,80,6.22,43.22,133.23
fairbanks,us,33.06,79,90,2.64,64.84,-147.72
lalomanu,ws,,,,,,
tual,id,84.07,100,0,4.54,-5.67,132.75
nikolayevsk-na-amure,ru,46.27,74,0,11.03,53.14,140.72
bichena,et,67.42,32,0,2.42,10.45,38.2
casambalangan,ph,80.56,100,64,17.74,18.38,122.13
ewa beach,us,78.4,83,90,5.82,21.32,-158.01
nizhneyansk,ru,,,,,,
meyungs,pw,,,,,,
ritterhude,de,42.8,87,40,13.87,53.19,8.75
kalevala,ru,28.27,100,64,5.88,64.12,29.58
rio gallegos,ar,53.6,76,0,12.75,-51.62,-69.22
longyearbyen,sj,23,57,20,12.75,78.22,15.63
grand-santi,gf,76.28,92,0,2.64,4.27,-54.38
kodiak,us,48.2,100,20,3.36,39.95,-94.76
bandar maharani,my,,,,,,
luderitz,na,69.8,37,0,2.24,-26.65,15.16
faya,td,59.94,82,0,4.7,18.39,42.45
touros,br,76.28,98,68,9.8,-5.2,-35.46
warwick,au,39.33,75,1,6.93,41.7,-71.42
port pirie,au,66.2,32,90,12.75,-33.18,138.01
victoria,sc,85.98,74,75,2.24,5.28,115.24
kholodnyy,ru,19.09,90,88,2.64,62.72,147.95
bargal,so,,,,,,
sumbe,ao,76.06,100,88,2.86,-11.2,13.84
gazli,uz,80.38,32,8,19.75,40.13,63.45
aykhal,ru,18.73,79,32,4.65,65.95,111.51
westport,nz,35.6,100,75,6.93,53.8,-9.52
azimur,ma,,,,,,
caucaia,br,80.6,78,40,12.75,-3.73,-38.66
sao joao da barra,br,73.63,100,92,14.05,-21.64,-41.05
quatre cocos,mu,75.2,69,40,4.7,-20.21,57.76
kuhdasht,ir,53.6,93,20,3.2,33.53,47.61
narasannapeta,in,92.48,45,0,6.11,18.42,84.04
iwanai,jp,58.51,90,24,27.58,42.97,140.51
stoyba,ru,,,,,,
la romana,do,78.8,83,20,4.7,18.43,-68.97
santiago,pe,62.6,51,40,3.36,-33.44,-70.65
dolzhanskaya,ru,52.79,100,76,9.69,46.63,37.8
barra de sao francisco,br,69.89,99,76,3.42,-18.75,-40.89
marabba,sd,86.09,38,12,2.19,12.35,32.18
umba,ru,33.58,100,0,14.83,66.69,34.34
acapulco,mx,80.6,88,40,4.7,16.86,-99.88
asansol,in,86.81,56,0,5.77,23.69,86.98
daru,pg,70.88,99,80,4.09,7.99,-10.85
san matias,bo,64.4,88,40,1.97,13.97,-86.63
amapa,br,78.8,88,20,3.36,15.09,-87.97
namatanai,pg,80.38,100,32,2.53,-3.66,152.44
tambopata,pe,,,,,,
andselv,no,,,,,,
hualmay,pe,54.37,95,64,5.21,-11.1,-77.61
sao jose da coroa grande,br,75.07,95,92,7.45,-8.9,-35.15
juifang,tw,,,,,,
bossembele,cf,,,,,,
brokopondo,sr,73.4,100,40,2.24,5.06,-54.98
kigoma,tz,76.24,100,88,4.99,-4.88,29.64
guadalupe y calvo,mx,45.46,86,0,2.42,26.09,-106.96
kropotkin,ru,45.28,97,0,4.76,45.43,40.58
tautira,pf,77,88,90,6.93,-17.73,-149.15
shchelyayur,ru,,,,,,
elizabeth city,us,64.22,93,90,4.7,36.3,-76.22
balimo,pg,,,,,,
shache,cn,59.63,31,0,3.53,38.42,77.24
karkaralinsk,kz,,,,,,
san angelo,us,60.8,72,1,6.93,31.46,-100.44
mocuba,mz,73.72,74,80,4.21,-16.84,36.99
cockburn town,tc,82.58,99,0,15.84,21.46,-71.14
kucevo,rs,44.06,79,20,3.87,44.48,21.67
malanville,bj,71.29,86,8,6.44,11.86,3.39
bassano,ca,49.96,39,48,12.82,50.79,-112.47
mahanje,tz,,,,,,
visby,se,37.4,93,92,19.46,57.64,18.3
helong,cn,69.71,40,0,6.44,25.94,116.13
victoria point,au,79.99,54,0,11.41,-27.58,153.3
kandrian,pg,76.06,100,92,3.53,-6.21,149.55
olinda,br,71.6,83,40,13.87,-2.03,-79.75
yatou,cn,71.6,100,40,5.44,3.63,9.81
thabazimbi,za,74.08,32,0,2.75,-24.59,27.41
los llanos de aridane,es,66.2,72,36,5.82,28.66,-17.92
ust-maya,ru,21.07,74,8,3.42,60.42,134.54
palembang,id,87.89,82,36,4.21,-2.99,104.76
yerbogachen,ru,28,70,88,3.76,61.28,108.01
bathsheba,bb,78.8,78,20,10.29,13.22,-59.52
karamay,cn,,,,,,
san esteban,hn,62.6,51,40,3.36,-32.8,-70.58
sebinkarahisar,tr,30.74,93,56,2.53,40.29,38.42
kavaratti,in,84.52,100,0,0.18,10.57,72.64
naze,jp,75.2,94,40,2.98,5.43,7.07
hovd,mn,27.54,86,0,4.7,63.83,10.7
labuhan,id,83.26,77,88,3.2,-2.54,115.51
bowen,au,95,32,0,17.22,-20.01,148.25
kamaishi,jp,62.6,93,75,6.93,39.28,141.86
tadine,nc,75.34,100,56,0.63,-21.55,167.88
zhangjiakou,cn,46.18,50,0,17.85,40.77,114.88
port blair,in,81.86,100,68,10.25,11.67,92.75
saint johnsbury,us,27.37,79,20,2.19,44.42,-72.02
george,za,77,94,40,2.24,6.63,3.35
cortez,us,44.6,52,1,4.76,37.35,-108.58
tomatlan,mx,68.5,94,0,1.97,19.93,-105.25
bukama,cd,76.78,66,12,2.42,-9.2,25.85
dinguiraye,gn,67.24,93,80,3.2,11.29,-10.71
fort nelson,ca,30.2,80,75,3.36,58.81,-122.69
roald,no,31.28,100,0,14.99,62.58,6.12
shar,kz,75.38,97,92,4.65,7.3,8.73
komsomolets,kz,34.88,92,88,11.48,52.77,41.29
maniitsoq,gl,38.98,93,92,21.54,65.42,-52.9
ouesso,cg,71.56,99,76,2.98,1.61,16.05
college,us,33.04,79,90,2.64,64.86,-147.8
benjamin constant,br,75.2,100,75,3.36,-4.38,-70.03
nantucket,us,41.72,75,1,8.05,41.28,-70.1
quang ngai,vn,74.08,97,100,3.65,15.12,108.8
kuching,my,82.4,83,75,10.29,1.56,110.34
derzhavinsk,kz,63.86,58,20,16.28,51.1,66.31
lamu,ke,87.08,63,56,2.86,0.57,122.3
niksar,tr,40.15,83,8,2.64,40.59,36.95
tanout,ne,70.39,67,0,2.64,14.97,8.88
rawannawi,ki,,,,,,
kintinku,tz,73.58,70,0,4.65,-5.89,35.22
hambantota,lk,83.39,100,20,5.99,6.12,81.12
margate,za,50,43,75,25.28,-43.03,147.26
pacifica,us,62.49,77,1,3.36,37.61,-122.49
bolungarvik,is,,,,,,
imbituba,br,69.8,100,75,12.75,-28.24,-48.67
sarh,td,77,83,0,8.57,9.14,18.39
ko samui,th,87.8,70,20,10.29,9.54,99.94
vysokogornyy,ru,40.64,97,92,11.25,50.1,139.13
kloulklubed,pw,86,70,75,16.11,7.04,134.26
saleaula,ws,,,,,,
wasilla,us,40.48,70,1,3.36,61.58,-149.44
bonthe,sl,77.99,96,80,1.97,7.53,-12.5
eureka,us,59,100,90,3.36,40.8,-124.16
cap malheureux,mu,75.2,69,40,4.7,-19.98,57.61
lavrentiya,ru,30.43,100,0,30.15,65.58,-170.99
birao,cf,71.2,96,24,4.88,10.3,22.78
longlac,ca,,,,,,
marzuq,ly,71.83,35,0,3.65,14.4,46.47
juneau,us,42.8,93,90,11.41,58.3,-134.42
chandauli,in,83.35,75,0,4.43,25.26,83.27
debre tabor,et,66.25,50,0,4.99,11.86,38.01
usak,tr,33.67,96,0,2.75,38.67,29.41
trat,th,91.4,63,20,6.93,12.25,102.51
kirillov,ru,32.63,97,36,13.04,59.86,38.38
tenkodogo,bf,72.19,83,0,2.08,11.78,-0.37
mecca,sa,81.37,48,8,4.09,21.43,39.83
coswig,de,48.2,70,75,9.17,51.13,13.58
buraydah,sa,69.8,77,75,26.4,26.33,43.97
auki,sb,69.26,82,0,2.64,12.18,6.51
ahipara,nz,64.58,81,88,17.52,-35.17,173.16
visnes,no,32.79,69,0,4.7,59.36,5.22
linguere,sn,,,,,,
jatai,br,86.81,43,0,4.65,28.97,76.18
mubi,ng,73.9,71,56,2.53,10.27,13.26
bur gabo,so,,,,,,
kaduy,ru,23.86,92,8,9.01,59.2,37.15
koratla,in,88.12,47,0,7,18.82,78.72
mosquera,co,55.4,87,75,4.7,4.71,-74.23
anicuns,br,64.72,97,32,3.2,-16.46,-49.96
babanusah,sd,,,,,,
vigo,ph,48.2,70,20,12.75,42.24,-8.72
escanaba,us,42.8,100,90,3.36,45.75,-87.06
vila franca do campo,pt,62.6,72,40,5.82,37.72,-25.43
lindas,no,29.93,100,0,2.75,60.74,5.16
bureya,ru,40.15,82,88,7.67,49.81,129.81
bambanglipuro,id,80.92,88,76,8.57,-7.95,110.28
tarudant,ma,,,,,,
terrace,ca,42.8,93,75,13.87,54.52,-128.61
takoradi,gh,78.22,100,0,4.88,4.89,-1.75
mys shmidta,ru,,,,,,
bam,ir,80.24,36,0,3.42,29.11,58.36
melfi,td,51.8,100,40,10.29,41,15.66
corrientes,ar,59,100,0,5.82,-27.47,-58.83
araguaina,br,76.33,73,8,5.21,-7.19,-48.21
saint george,bm,48.2,93,0,4.7,39.45,22.34
along,in,78.53,33,0,1.3,28.17,94.8
srandakan,id,80.92,88,76,8.57,-7.94,110.25
labis,my,85.6,79,44,3.87,2.38,103.02
yerofey pavlovich,ru,27.73,41,0,11.25,53.97,121.97
anadyr,ru,5,84,0,4.47,64.73,177.51
padang,id,80.78,100,56,3.09,-0.92,100.36
jujuy,ar,,,,,,
sao filipe,cv,77.36,100,24,10.8,14.9,-24.5
lufilufi,ws,87.8,70,75,6.93,-13.87,-171.6
pemba,mz,73.4,88,20,9.17,-12.97,40.52
lumberton,us,59,87,1,5.77,30.27,-94.2
comodoro rivadavia,ar,56.08,74,68,14.83,-45.87,-67.48
wadi musa,jo,56.98,81,0,4.65,30.32,35.48
gondanglegi,id,89.29,52,20,10.8,-7.75,112.01
milkovo,ru,43.47,93,0,3.36,41.53,24.68
waddan,ly,63.01,60,24,14.05,29.16,16.14
mahebourg,mu,75.2,69,40,4.7,-20.41,57.7
lincoln,ar,37.2,80,0,12.75,53.23,-0.54
jucuaran,sv,79.57,100,92,5.77,13.25,-88.25
sorong,id,86.63,91,12,14.5,-0.86,131.25
provost,ca,38.84,58,0,6.78,52.35,-110.26
mount gambier,au,62.56,69,0,7.67,-37.83,140.78
karratha,au,101.08,10,0,8.01,-20.74,116.85
grinnell,us,48.2,70,90,4.7,41.74,-92.72
eyl,so,78.08,100,64,7.34,7.98,49.82
baykit,ru,37.81,98,92,7.34,61.68,96.39
havre-saint-pierre,ca,26.6,68,20,10.29,50.23,-63.6
mantua,cu,59.79,93,75,2.24,45.16,10.79
sovetskaya gavan,ru,49.42,99,92,27.13,48.97,140.29
avera,pf,51.82,93,90,3.36,33.19,-82.53
mwanza,mw,72.64,79,12,9.91,-2.52,32.9
carutapera,br,78.53,87,0,8.23,-1.2,-46.02
bereda,so,51.8,66,40,13.87,43.27,-7.54
gagino,ru,34.43,86,48,12.03,54.27,39.54
puerto cabezas,ni,81.41,100,92,10.69,14.04,-83.39
kholm,af,32.99,96,92,7.11,57.15,31.18
sandwick,gb,33.8,80,44,4.7,54.57,-2.89
flinders,au,73.4,53,0,14.99,-34.58,150.85
vallenar,cl,52.16,66,0,3.2,-28.58,-70.76
dunedin,nz,53.78,87,68,5.32,-45.87,170.5
thanh hoa,vn,86.81,78,56,4.76,10.21,106.33
almaty,kz,59,41,12,2.24,43.24,76.95
boyolangu,id,89.29,52,20,10.8,-8.09,111.9
balabac,ph,84.97,100,32,3.31,7.99,117.06
sibu,my,87.8,70,75,4.7,2.29,111.83
cherskiy,ru,-1.39,58,36,2.98,68.75,161.3
kahului,us,76.26,78,40,14.99,20.89,-156.47
evensk,ru,33.04,100,92,5.77,61.92,159.24
evanston,us,48.6,66,90,5.82,42.04,-87.69
morgan city,us,59.09,93,1,9.46,29.7,-91.21
hoa binh,vn,78.8,65,40,10.29,20.81,105.34
luwingu,zm,76.64,42,8,6.78,-10.26,29.92
korla,cn,,,,,,
mezhdurechenskiy,ru,43.66,81,8,6.67,59.59,65.91
agua dulce,mx,82.4,93,75,11.41,18.14,-94.15
tevaitoa,pf,78.85,100,92,10.25,-16.78,-151.5
itarema,br,77.23,91,88,11.03,-2.92,-39.92
salamanca,cl,48.2,87,92,4.7,40.97,-5.66
kiama,au,73.4,53,0,14.99,-34.67,150.86
rocha,uy,56.66,89,92,12.48,-34.48,-54.34
olafsvik,is,,,,,,
novo aripuana,br,77.77,85,20,2.19,-5.12,-60.38
manama,bh,81.95,78,0,2.24,25.33,56.02
jalu,ly,59.32,74,0,8.68,29.03,21.55
lubsko,pl,48.2,76,75,10.29,51.79,14.97
saint-georges,gf,17.56,86,8,2.3,46.12,-70.67
ambulu,id,81.68,87,32,10.69,-8.35,113.61
sieradz,pl,48.2,81,75,10.29,51.6,18.74
krabi,th,86.94,74,40,8.05,8.06,98.92
inderborskiy,kz,,,,,,
safaga,eg,,,,,,
searcy,us,48.24,93,1,4.54,35.25,-91.74
ust-nera,ru,14.59,88,88,2.42,64.57,143.24
ust-kuyga,ru,0.82,72,76,3.53,70,135.55
nguiu,au,,,,,,
port macquarie,au,73.4,60,20,14.99,-31.43,152.91
yuzhno-yeniseyskiy,ru,,,,,,
bhatapara,in,84.74,63,0,5.66,21.77,81.81
tessalit,ml,50.95,44,0,2.98,20.2,1.01
hirara,jp,77.92,61,40,18.34,24.8,125.28
the pas,ca,32,100,90,3.36,53.82,-101.24
barmer,in,77.95,99,0,4.65,25.74,71.4
aranos,na,70.66,19,44,3.2,-24.14,19.11
aksu,cn,44.6,41,0,11.18,52.04,76.93
vanavara,ru,36.14,98,92,3.76,60.35,102.28
aksay,kz,40.33,94,0,5.55,47.27,39.86
shiloh,us,47.43,93,90,8.05,38.56,-89.9
san andres,co,84.43,97,64,18.86,13.32,122.68
baghdad,iq,60.8,55,0,9.17,33.3,44.38
robertsport,lr,81.19,100,48,3.76,6.75,-11.37
dicabisagan,ph,80.29,95,44,14.16,17.08,122.42
tunduma,tz,74.35,52,0,11.36,-9.31,32.77
denpasar,id,78.44,83,88,2.42,-8.65,115.22
phan rang,vn,,,,,,
abu samrah,qa,53.33,39,0,3.09,35.3,37.18
el bagre,co,73.45,100,80,2.64,7.6,-74.8
cairns,au,82.4,61,0,9.17,-16.92,145.77
weligama,lk,84.25,90,32,7.78,5.97,80.42
tezu,in,73.99,43,0,1.74,27.93,96.16
preobrazheniye,ru,41.81,64,68,6.22,42.9,133.91
moose factory,ca,28.4,68,90,2.24,51.26,-80.61
ust-kamchatsk,ru,,,,,,
wahran,dz,,,,,,
chifeng,cn,44.33,37,92,14.5,42.27,118.96
leo,bf,74.17,78,8,2.75,11.1,-2.1
kruisfontein,za,65.21,88,88,8.9,-34,24.73
axim,gh,80.33,100,0,7.78,4.87,-2.24
aklavik,ca,23,92,90,3.36,68.22,-135.01
teguise,es,66.2,93,20,4.7,29.06,-13.56
vestmannaeyjar,is,29.84,100,36,13.04,63.44,-20.27
conakry,gn,77.99,100,44,8.68,9.52,-13.7
zlobin,by,64.4,88,90,5.82,45.29,14.65
zheleznodorozhnyy,ru,35.15,88,75,8.95,55.75,38
krasnoselkup,ru,,,,,,
cintalapa,mx,70.39,96,92,3.2,16.7,-93.73
todos santos,mx,74.62,83,20,10.29,23.45,-110.23
ulaanbaatar,mn,37.4,51,75,13.42,47.92,106.92
rodnikovskaya,ru,47.21,96,8,7.56,44.77,40.66
saurimo,ao,73.9,79,36,3.76,-9.66,20.4
kaili,cn,85.73,55,32,4.21,-3.46,120.21
okazaki,jp,71.02,64,75,16.11,34.95,137.26
porbandar,in,86,55,0,4.7,21.64,69.61
laguna,br,68.05,76,0,2.3,27.52,-110.01
cockburn harbour,tc,,,,,,
lasa,cn,58.37,58,20,10.29,34.92,32.53
caravelas,br,77.54,100,88,25.23,-17.73,-39.27
setermoen,no,12.2,85,75,1.97,68.86,18.35
ikalamavony,mg,67.73,63,0,3.2,-21.17,46.6
makaha,us,78.44,83,90,5.82,21.47,-158.22
